{"type": "FeatureCollection", "features": [{"type": "Feature", "geometry": {"type": "Point", "coordinates": [13.4003668365479, 52.549071]}, "properties": {"counter_id": "12-PA-SCH", "name": "Schwedter Steg", "install_date": "2012-03-01", "lat": 52.549071, "lon": 13.4003668365479}}, {"type": "Feature", "geometry": {"type": "Point", "coordinates": [13.41783460946187, 52.51393215939899]}, "properties": {"counter_id": "02-MI-JAN-N", "name": "Jannowitzbrücke Nord", "install_date": "2015-04-01", "lat": 52.51393215939899, "lon": 13.41783460946187}}, {"type": "Feature", "geometry": {"type": "Point", "coordinates": [13.417611074205, 52.5139429938464]}, "properties": {"counter_id": "02-MI-JAN-S", "name": "Jannowitzbrücke Süd", "install_date": "2015-04-01", "lat": 52.5139429938464, "lon": 13.417611074205}}, {"type": "Feature", "geometry": {"type": "Point", "coordinates": [13.33311990737359, 52.488135580706334]}, "properties": {"counter_id": "13-CW-PRI", "name": "Prinzregentenstraße", "install_date": "2015-04-01", "lat": 52.488135580706334, "lon": 13.33311990737359}}, {"type": "Feature", "geometry": {"type": "Point", "coordinates": [13.373472267973568, 52.4919379605113]}, "properties": {"counter_id": "18-TS-YOR-O", "name": "Yorckstraße Ost", "install_date": "2015-04-01", "lat": 52.4919379605113, "lon": 13.373472267973568}}, {"type": "Feature", "geometry": {"type": "Point", "coordinates": [13.37321, 52.49228]}, "properties": {"counter_id": "18-TS-YOR-W", "name": "Yorkstraße West", "install_date": "2015-04-01", "lat": 52.49228, "lon": 13.37321}}, {"type": "Feature", "geometry": {"type": "Point", "coordinates": [13.369785, 52.488117]}, "properties": {"counter_id": "19-TS-MON", "name": "Monumentenstraße", "install_date": "2015-05-01", "lat": 52.488117, "lon": 13.369785}}, {"type": "Feature", "geometry": {"type": "Point", "coordinates": [13.3649435, 52.55819]}, "properties": {"counter_id": "27-RE-MAR", "name": "Markstraße", "install_date": "2015-05-01", "lat": 52.55819, "lon": 13.3649435}}, {"type": "Feature", "geometry": {"type": "Point", "coordinates": [13.3720158872605, 52.5271768961928]}, "properties": {"counter_id": "03-MI-SAN-O", "name": "Invalidenstraße Ost", "install_date": "2015-06-01", "lat": 52.5271768961928, "lon": 13.3720158872605}}, {"type": "Feature", "geometry": {"type": "Point", "coordinates": [13.3731048641205, 52.5276860197938]}, "properties": {"counter_id": "03-MI-SAN-W", "name": "Invalidenstraße West", "install_date": "2015-06-01", "lat": 52.5276860197938, "lon": 13.3731048641205}}, {"type": "Feature", "geometry": {"type": "Point", "coordinates": [13.445060485363, 52.5011988679576]}, "properties": {"counter_id": "05-FK-OBB-O", "name": "Oberbaumbrücke Ost", "install_date": "2015-06-01", "lat": 52.5011988679576, "lon": 13.445060485363}}, {"type": "Feature", "geometry": {"type": "Point", "coordinates": [13.444867366314, 52.5012756085914]}, "properties": {"counter_id": "05-FK-OBB-W", "name": "Oberbaumbrücke West", "install_date": "2015-06-01", "lat": 52.5012756085914, "lon": 13.444867366314}}, {"type": "Feature", "geometry": {"type": "Point", "coordinates": [13.4743022918701, 52.5003234023861]}, "properties": {"counter_id": "26-LI-PUP", "name": "Paul-und-Paula-Uferweg", "install_date": "2015-06-01", "lat": 52.5003234023861, "lon": 13.4743022918701}}, {"type": "Feature", "geometry": {"type": "Point", "coordinates": [13.558493, 52.492534]}, "properties": {"counter_id": "24-MH-ALB", "name": "Alberichstraße", "install_date": "2015-07-01", "lat": 52.492534, "lon": 13.558493}}, {"type": "Feature", "geometry": {"type": "Point", "coordinates": [13.41248937, 52.56692362]}, "properties": {"counter_id": "10-PA-BER-N", "name": "Berliner Straße Nord", "install_date": "2016-05-01", "lat": 52.56692362, "lon": 13.41248937}}, {"type": "Feature", "geometry": {"type": "Point", "coordinates": [13.41216649, 52.56681286]}, "properties": {"counter_id": "10-PA-BER-S", "name": "Berliner Straße Süd", "install_date": "2016-05-01", "lat": 52.56681286, "lon": 13.41216649}}, {"type": "Feature", "geometry": {"type": "Point", "coordinates": [13.198487973304143, 52.53330769478785]}, "properties": {"counter_id": "15-SP-KLO-S", "name": "Klosterstraße Süd", "install_date": "2016-05-01", "lat": 52.53330769478785, "lon": 13.198487973304143}}, {"type": "Feature", "geometry": {"type": "Point", "coordinates": [13.199052742313857, 52.53351245116568]}, "properties": {"counter_id": "15-SP-KLO-N", "name": "Klosterstraße Nord", "install_date": "2016-06-01", "lat": 52.53351245116568, "lon": 13.199052742313857}}, {"type": "Feature", "geometry": {"type": "Point", "coordinates": [13.3091647731717, 52.4667601926523]}, "properties": {"counter_id": "17-SK-BRE-O", "name": "Breitenbachplatz Ost", "install_date": "2016-05-01", "lat": 52.4667601926523, "lon": 13.3091647731717}}, {"type": "Feature", "geometry": {"type": "Point", "coordinates": [13.3083600753752, 52.467215435872]}, "properties": {"counter_id": "17-SK-BRE-W", "name": "Breitenbachplatz West", "install_date": "2016-05-01", "lat": 52.467215435872, "lon": 13.3083600753752}}, {"type": "Feature", "geometry": {"type": "Point", "coordinates": [13.387953, 52.438535]}, "properties": {"counter_id": "20-TS-MAR-N", "name": "Mariendorfer Damm Nord", "install_date": "2016-05-01", "lat": 52.438535, "lon": 13.387953}}, {"type": "Feature", "geometry": {"type": "Point", "coordinates": [13.3878117799758, 52.4380724598425]}, "properties": {"counter_id": "20-TS-MAR-S", "name": "Mariendorfer Damm Süd", "install_date": "2016-05-01", "lat": 52.4380724598425, "lon": 13.3878117799758}}, {"type": "Feature", "geometry": {"type": "Point", "coordinates": [13.429682, 52.492998]}, "properties": {"counter_id": "21-NK-MAY", "name": "Maybachufer", "install_date": "2016-05-01", "lat": 52.492998, "lon": 13.429682}}, {"type": "Feature", "geometry": {"type": "Point", "coordinates": [13.5187, 52.45727]}, "properties": {"counter_id": "23-TK-KAI", "name": "Kaisersteg", "install_date": "2016-05-01", "lat": 52.45727, "lon": 13.5187}}, {"type": "Feature", "geometry": {"type": "Point", "coordinates": [13.474242, 52.513584]}, "properties": {"counter_id": "06-FK-FRA-O", "name": "Frankfurter Allee Ost", "install_date": "2016-06-01", "lat": 52.513584, "lon": 13.474242}}, {"type": "Feature", "geometry": {"type": "Point", "coordinates": [13.474414, 52.51379]}, "properties": {"counter_id": "06-FK-FRA-W", "name": "Frankfurter Allee West", "install_date": "2016-06-01", "lat": 52.51379, "lon": 13.474414}}, {"type": "Feature", "geometry": {"type": "Point", "coordinates": [13.3268451690673, 52.5131325896952]}, "properties": {"counter_id": "14-CW-JU-W", "name": "Straße des 17. Juni West", "install_date": "2021-07-27", "lat": 52.5131325896952, "lon": 13.3268451690673}}, {"type": "Feature", "geometry": {"type": "Point", "coordinates": [13.32663, 52.51259]}, "properties": {"counter_id": "14-CW-JU-O", "name": "Straße des 17. Juni Ost", "install_date": "2021-07-27", "lat": 52.51259, "lon": 13.32663}}, {"type": "Feature", "geometry": {"type": "Point", "coordinates": [13.4175360202789, 52.5219071605016]}, "properties": {"counter_id": "01-MI-AL-W", "name": "Karl-Marx-Allee", "install_date": "2021-12-16", "lat": 52.5219071605016, "lon": 13.4175360202789}}, {"type": "Feature", "geometry": {"type": "Point", "coordinates": [13.4123547323753, 52.5313796245428]}, "properties": {"counter_id": "11-PA-SE-N", "name": "Senefelder Platz Nord", "install_date": "2022-10-06", "lat": 52.5313796245428, "lon": 13.4123547323753}}, {"type": "Feature", "geometry": {"type": "Point", "coordinates": [13.417864, 52.513933]}, "properties": {"counter_id": "04-MI-NO", "name": "Nordufer", "install_date": "2023-10-16", "lat": 52.513933, "lon": 13.417864}}, {"type": "Feature", "geometry": {"type": "Point", "coordinates": [13.247914, 52.537901]}, "properties": {"counter_id": "16-SP-NO-O", "name": "Nonnendammallee Ost", "install_date": "2023-11-22", "lat": 52.537901, "lon": 13.247914}}, {"type": "Feature", "geometry": {"type": "Point", "coordinates": [13.246996, 52.538414]}, "properties": {"counter_id": "16-SP-NO-W", "name": "Nonnendammallee West", "install_date": "2023-11-22", "lat": 52.538414, "lon": 13.246996}}, {"type": "Feature", "geometry": {"type": "Point", "coordinates": [13.426139, 52.518941]}, "properties": {"counter_id": "07-FK-ST", "name": "Strausberger Platz", "install_date": "2024-04-22", "lat": 52.518941, "lon": 13.426139}}, {"type": "Feature", "geometry": {"type": "Point", "coordinates": [13.412067, 52.543044]}, "properties": {"counter_id": "09-PA-SA-S", "name": "Schönhauser Allee", "install_date": "2024-04-22", "lat": 52.543044, "lon": 13.412067}}]}
